{"type":"FeatureCollection","crs":{"type":"name","properties":{"name":"EPSG:4326"}},"features":[{"type":"Feature","id":1,"geometry":{"type":"Point","coordinates":[136.9088196,37.3571535]},"properties":{"ID":1,"都道府県":"石川県","自治体名":"輪島市","名称_非公式_":"農村ふれあい広場","住所":"輪島市西脇町60","戸数":30,"着工日":"Thu, 11 Jan 2024 15:00:00 GMT","メモ":null,"出典":"石川県（2024/1/10）","出典URL":"https://www.pref.ishikawa.lg.jp/kisya/r6/documents/0110_1630_kenchikujuutaku.pdf","WKT":"POINT (136.9088196 37.3571535)","Type":"POINT","x":136.9088196,"y":37.3571535,"ObjectId":1}},{"type":"Feature","id":2,"geometry":{"type":"Point","coordinates":[136.908371,37.3967164]},"properties":{"ID":2,"都道府県":"石川県","自治体名":"輪島市","名称_非公式_":"キリコ会館多目的広場","住所":"輪島市マリンタウン6-1","戸数":46,"着工日":"Thu, 11 Jan 2024 15:00:00 GMT","メモ":"石川県（2024/1/14）によれば当初より26戸追加","出典":"石川県（2024/1/10）","出典URL":"https://www.pref.ishikawa.lg.jp/kisya/r6/documents/0110_1630_kenchikujuutaku.pdf","WKT":"POINT (136.908371 37.3967164)","Type":"POINT","x":136.908371,"y":37.3967164,"ObjectId":2}},{"type":"Feature","id":3,"geometry":{"type":"Point","coordinates":[137.3387351,37.4864228]},"properties":{"ID":3,"都道府県":"石川県","自治体名":"珠洲市","名称_非公式_":"みさき小学校グラウンド","住所":"珠洲市三崎町粟津ロ部10-1","戸数":50,"着工日":"Thu, 11 Jan 2024 15:00:00 GMT","メモ":"石川県（2024/1/14）によれば当初より25戸追加","出典":"石川県（2024/1/10）","出典URL":"https://www.pref.ishikawa.lg.jp/kisya/r6/documents/0110_1630_kenchikujuutaku.pdf","WKT":"POINT (137.3387351 37.4864228)","Type":"POINT","x":137.3387351,"y":37.4864228,"ObjectId":3}},{"type":"Feature","id":4,"geometry":{"type":"Point","coordinates":[137.2959773,37.4449586]},"properties":{"ID":4,"都道府県":"石川県","自治体名":"珠洲市","名称_非公式_":"正院小学校グラウンド","住所":"珠洲市正院町川尻1部39","戸数":40,"着工日":"Thu, 11 Jan 2024 15:00:00 GMT","メモ":null,"出典":"石川県（2024/1/10）","出典URL":"https://www.pref.ishikawa.lg.jp/kisya/r6/documents/0110_1630_kenchikujuutaku.pdf","WKT":"POINT (137.2959773 37.4449586)","Type":"POINT","x":137.2959773,"y":37.4449586,"ObjectId":4}},{"type":"Feature","id":5,"geometry":{"type":"Point","coordinates":[136.9083679,37.2314166]},"properties":{"ID":5,"都道府県":"石川県","自治体名":"穴水町","名称_非公式_":"川島児童公園","住所":"穴水町字川島ア48","戸数":15,"着工日":"Sun, 14 Jan 2024 15:00:00 GMT","メモ":null,"出典":"石川県（2024/1/14）","出典URL":"https://www.pref.ishikawa.lg.jp/kisya/r6/documents/0114_18_kenchikujuutaku.pdf","WKT":"POINT (136.9083679 37.2314166)","Type":"POINT","x":136.9083679,"y":37.2314166,"ObjectId":5}},{"type":"Feature","id":6,"geometry":{"type":"Point","coordinates":[137.0890466,37.2558043]},"properties":{"ID":6,"都道府県":"石川県","自治体名":"能登町","名称_非公式_":"旧鵜川小学校グラウンド","住所":"能登町鵜川29字1","戸数":66,"着工日":"Sun, 14 Jan 2024 15:00:00 GMT","メモ":null,"出典":"石川県（2024/1/14）","出典URL":"https://www.pref.ishikawa.lg.jp/kisya/r6/documents/0114_18_kenchikujuutaku.pdf","WKT":"POINT (137.0890466 37.2558043)","Type":"POINT","x":137.0890466,"y":37.2558043,"ObjectId":6}}]}