{"type":"FeatureCollection","crs":{"type":"name","properties":{"name":"EPSG:4326"}},"features":[{"type":"Feature","id":1,"geometry":{"type":"Point","coordinates":[136.9088196,37.3571535]},"properties":{"都道府県":"石川県","自治体名":"輪島市","名称_非公式_":"農村ふれあい広場","住所":"輪島市西脇町60","戸数":30,"メモ":null,"出典":"石川県（2024/1/10）","出典URL":"https://www.pref.ishikawa.lg.jp/kisya/r6/documents/0110_1630_kenchikujuutaku.pdf","ObjectId":1,"着工日_":"2024/01/12","GlobalID":"4e0d4731-f861-4d3a-b913-79a3c1b35f70","CreationDate":"Sun, 21 Jan 2024 08:55:12 GMT","EditDate":"Sun, 21 Jan 2024 08:55:12 GMT"}},{"type":"Feature","id":2,"geometry":{"type":"Point","coordinates":[136.908371,37.3967164]},"properties":{"都道府県":"石川県","自治体名":"輪島市","名称_非公式_":"キリコ会館多目的広場","住所":"輪島市マリンタウン6-1","戸数":46,"メモ":"石川県（2024/1/14）によれば当初より26戸追加","出典":"石川県（2024/1/10）","出典URL":"https://www.pref.ishikawa.lg.jp/kisya/r6/documents/0110_1630_kenchikujuutaku.pdf","ObjectId":2,"着工日_":"2024/01/12","GlobalID":"bba34148-7404-4444-b9e1-8190042deb8a","CreationDate":"Sun, 21 Jan 2024 08:55:12 GMT","EditDate":"Sun, 21 Jan 2024 08:55:12 GMT"}},{"type":"Feature","id":3,"geometry":{"type":"Point","coordinates":[137.3387351,37.4864228]},"properties":{"都道府県":"石川県","自治体名":"珠洲市","名称_非公式_":"みさき小学校グラウンド","住所":"珠洲市三崎町粟津ロ部10-1","戸数":50,"メモ":"石川県（2024/1/14）によれば当初より25戸追加","出典":"石川県（2024/1/10）","出典URL":"https://www.pref.ishikawa.lg.jp/kisya/r6/documents/0110_1630_kenchikujuutaku.pdf","ObjectId":3,"着工日_":"2024/01/12","GlobalID":"09b41b84-68f4-477a-888e-f947786e8f35","CreationDate":"Sun, 21 Jan 2024 08:55:12 GMT","EditDate":"Sun, 21 Jan 2024 08:55:12 GMT"}},{"type":"Feature","id":4,"geometry":{"type":"Point","coordinates":[137.2959773,37.4449586]},"properties":{"都道府県":"石川県","自治体名":"珠洲市","名称_非公式_":"正院小学校グラウンド","住所":"珠洲市正院町川尻1部39","戸数":40,"メモ":null,"出典":"石川県（2024/1/10）","出典URL":"https://www.pref.ishikawa.lg.jp/kisya/r6/documents/0110_1630_kenchikujuutaku.pdf","ObjectId":4,"着工日_":"2024/01/12","GlobalID":"70ceb063-6eda-4488-8533-cd2b471e6f18","CreationDate":"Sun, 21 Jan 2024 08:55:12 GMT","EditDate":"Sun, 21 Jan 2024 08:55:12 GMT"}},{"type":"Feature","id":5,"geometry":{"type":"Point","coordinates":[136.9083679,37.2314166]},"properties":{"都道府県":"石川県","自治体名":"穴水町","名称_非公式_":"川島児童公園","住所":"穴水町字川島ア48","戸数":15,"メモ":null,"出典":"石川県（2024/1/14）","出典URL":"https://www.pref.ishikawa.lg.jp/kisya/r6/documents/0114_18_kenchikujuutaku.pdf","ObjectId":5,"着工日_":"2024/01/15","GlobalID":"ae89cf53-cd2f-4b98-beac-81024b02cd6e","CreationDate":"Sun, 21 Jan 2024 08:55:12 GMT","EditDate":"Sun, 21 Jan 2024 08:55:12 GMT"}},{"type":"Feature","id":6,"geometry":{"type":"Point","coordinates":[137.0890466,37.2558043]},"properties":{"都道府県":"石川県","自治体名":"能登町","名称_非公式_":"旧鵜川小学校グラウンド","住所":"能登町鵜川29字1","戸数":66,"メモ":null,"出典":"石川県（2024/1/14）","出典URL":"https://www.pref.ishikawa.lg.jp/kisya/r6/documents/0114_18_kenchikujuutaku.pdf","ObjectId":6,"着工日_":"2024/01/15","GlobalID":"637ab138-6548-41ec-ab3f-4b9386128c9f","CreationDate":"Sun, 21 Jan 2024 08:55:12 GMT","EditDate":"Sun, 21 Jan 2024 08:55:12 GMT"}},{"type":"Feature","id":7,"geometry":{"type":"Point","coordinates":[136.989415855291,37.0458718220272]},"properties":{"都道府県":"石川県","自治体名":"七尾市","名称_非公式_":"万行１号公園","住所":"七尾市万行2丁目192","戸数":30,"メモ":null,"出典":"石川県（2024/1/19）","出典URL":"https://www.pref.ishikawa.lg.jp/kisya/r5/documents/0119_1730_kenchikujuutaku.pdf","ObjectId":7,"着工日_":"2024/1/20","GlobalID":"29d8d5a3-82f3-4df6-9697-6abb7e6077ea","CreationDate":"Sat, 27 Jan 2024 09:21:52 GMT","EditDate":"Sat, 27 Jan 2024 09:30:22 GMT"}},{"type":"Feature","id":8,"geometry":{"type":"Point","coordinates":[136.910244662469,37.2329088979651]},"properties":{"都道府県":"石川県","自治体名":"穴水町","名称_非公式_":"町民農園","住所":"穴水町字川島タ52-1","戸数":43,"メモ":null,"出典":"石川県（2024/1/19）","出典URL":"https://www.pref.ishikawa.lg.jp/kisya/r5/documents/0119_1730_kenchikujuutaku.pdf","ObjectId":8,"着工日_":"2024/1/20","GlobalID":"ab86e9da-da80-47ff-a71f-8fb900076796","CreationDate":"Sat, 27 Jan 2024 09:23:30 GMT","EditDate":"Sat, 27 Jan 2024 09:23:30 GMT"}},{"type":"Feature","id":9,"geometry":{"type":"Point","coordinates":[136.912012519278,37.2281425304737]},"properties":{"都道府県":"石川県","自治体名":"穴水町","名称_非公式_":"穴水交通公園","住所":"穴水町字川島キ13","戸数":18,"メモ":null,"出典":"石川県（2024/1/19）","出典URL":"https://www.pref.ishikawa.lg.jp/kisya/r5/documents/0119_1730_kenchikujuutaku.pdf","ObjectId":9,"着工日_":"2024/1/20","GlobalID":"5a5f0afd-9b5e-45df-b2c9-9f9065d76928","CreationDate":"Sat, 27 Jan 2024 09:25:53 GMT","EditDate":"Sat, 27 Jan 2024 09:25:53 GMT"}},{"type":"Feature","id":10,"geometry":{"type":"Point","coordinates":[136.85012226334,37.1229764764595]},"properties":{"都道府県":"石川県","自治体名":"七尾市","名称_非公式_":"中島中学校跡地","住所":"七尾市中島町中島甲14","戸数":60,"メモ":null,"出典":"石川県（2024/1/23）","出典URL":"https://www.pref.ishikawa.lg.jp/kisya/r6/documents/0123_1730_kenchikujuutaku.pdf","ObjectId":10,"着工日_":"2024/1/25","GlobalID":"90ff75eb-f80c-45b1-bd44-f90175d5f852","CreationDate":"Sat, 27 Jan 2024 09:29:49 GMT","EditDate":"Sat, 27 Jan 2024 09:29:49 GMT"}},{"type":"Feature","id":11,"geometry":{"type":"Point","coordinates":[136.908865851486,37.0666873752953]},"properties":{"都道府県":"石川県","自治体名":"七尾市","名称_非公式_":"田鶴浜定住促進住宅跡地","住所":"七尾市船尾町ら部24","戸数":45,"メモ":null,"出典":"石川県（2024/1/23）","出典URL":"https://www.pref.ishikawa.lg.jp/kisya/r6/documents/0123_1730_kenchikujuutaku.pdf","ObjectId":11,"着工日_":"2024/1/25","GlobalID":"aacb40b1-2021-4677-8bad-ef64ecb3835b","CreationDate":"Sat, 27 Jan 2024 09:32:57 GMT","EditDate":"Sat, 27 Jan 2024 09:32:57 GMT"}},{"type":"Feature","id":12,"geometry":{"type":"Point","coordinates":[137.342823705186,37.4735222762986]},"properties":{"都道府県":"石川県","自治体名":"珠洲市","名称_非公式_":"三崎中学校グラウンド","住所":"珠洲市三崎町宇治ヨ部114","戸数":60,"メモ":null,"出典":"石川県（2024/1/23）","出典URL":"https://www.pref.ishikawa.lg.jp/kisya/r6/documents/0123_1730_kenchikujuutaku.pdf","ObjectId":12,"着工日_":"2024/1/25","GlobalID":"1d3a0d0c-7430-4b45-8f09-a241fa698d6a","CreationDate":"Sat, 27 Jan 2024 09:34:13 GMT","EditDate":"Sat, 27 Jan 2024 09:34:13 GMT"}},{"type":"Feature","id":13,"geometry":{"type":"Point","coordinates":[137.319020781671,37.4431613898319]},"properties":{"都道府県":"石川県","自治体名":"珠洲市","名称_非公式_":"市営多目的広場","住所":"珠洲市蛸島町鉢ヶ崎1-3","戸数":117,"メモ":null,"出典":"石川県（2024/1/23）","出典URL":"https://www.pref.ishikawa.lg.jp/kisya/r6/documents/0123_1730_kenchikujuutaku.pdf","ObjectId":13,"着工日_":"2024/1/25","GlobalID":"db98e045-cd34-4db4-baba-6894c3a330cd","CreationDate":"Sat, 27 Jan 2024 09:38:13 GMT","EditDate":"Sat, 27 Jan 2024 09:38:13 GMT"}},{"type":"Feature","id":14,"geometry":{"type":"Point","coordinates":[136.724169186641,37.1436301069779]},"properties":{"都道府県":"石川県","自治体名":"志賀町","名称_非公式_":"旧ＪＡ志賀富来支店駐車場","住所":"志賀町富来領家町甲6-1","戸数":20,"メモ":null,"出典":"石川県（2024/1/23）","出典URL":"https://www.pref.ishikawa.lg.jp/kisya/r6/documents/0123_1730_kenchikujuutaku.pdf","ObjectId":14,"着工日_":"2024/1/26","GlobalID":"abb35d02-5f3f-4870-8473-c2ee424740fb","CreationDate":"Sat, 27 Jan 2024 09:43:05 GMT","EditDate":"Sat, 27 Jan 2024 09:43:05 GMT"}}]}